     2.11           OBSERVATION DATA    M (MIXED)           RINEX VERSION / TYPE
GPP.DLL V3.02       ESNG-DPTS           12 - OCT - 18 01:59 PGM / RUN BY / DATE
Onboard RINEX convertor RC024                               COMMENT
ENSG                                                        MARKER NAME
                                                            MARKER NUMBER
JBeilin             ESNG-DPTS                               OBSERVER / AGENCY
201518010           ProFlex800          S845Kl27            REC # / TYPE / VERS
                    TRM55971.00                             ANT # / TYPE
  4253804.4427  -224255.7080  4731475.5125                  APPROX POSITION XYZ
        0.0000       -0.0000       -0.0000                  ANTENNA: DELTA H/E/N
     1     1                                                WAVELENGTH FACT L1/2
    14    L1    C1    D1    S1    L2    P2    D2    S2    P1# / TYPES OF OBSERV
          C2    L5    C5    D5    S5                        # / TYPES OF OBSERV
0.25 cycles added to GPS L1P carrier phase                  COMMENT
0.25 cycles subtracted from GLONASS L2C carrier phase       COMMENT
    15.000                                                  INTERVAL
  2018    10    12     1     0   15.0000000     GPS         TIME OF FIRST OBS
  2018    10    12     1    59   45.0000000     GPS         TIME OF LAST OBS
    17                                                      LEAP SECONDS
    30                                                      # OF SATELLITES
   G02   239   239   239   239   239   239   239   239   239PRN / # OF OBS
           0     0     0     0     0                        PRN / # OF OBS
   G06   239   239   239   239   239   239   239   239   239PRN / # OF OBS
           0     0     0     0     0                        PRN / # OF OBS
   G12   239   239   239   239   239   239   239   239   239PRN / # OF OBS
           0     0     0     0     0                        PRN / # OF OBS
   G14   239   239   239   239   239   239   239   239   239PRN / # OF OBS
           0     0     0     0     0                        PRN / # OF OBS
   G19    49    49    49    49    49    49    49    49    48PRN / # OF OBS
           0     0     0     0     0                        PRN / # OF OBS
   G24   180   180   180   180   164   164   164   164   164PRN / # OF OBS
           0     0     0     0     0                        PRN / # OF OBS
   G25   239   239   239   239   239   239   239   239   239PRN / # OF OBS
           0     0     0     0     0                        PRN / # OF OBS
   G29   239   239   239   239   239   239   239   239   239PRN / # OF OBS
           0     0     0     0     0                        PRN / # OF OBS
   G31   239   239   239   239   239   239   239   239   239PRN / # OF OBS
           0     0     0     0     0                        PRN / # OF OBS
   G32   239   239   239   239   239   239   239   239   239PRN / # OF OBS
           0     0     0     0     0                        PRN / # OF OBS
   R04    31    31    31    31    30     0    30    30     0PRN / # OF OBS
          30     0     0     0     0                        PRN / # OF OBS
   R05   235   235   235   235   230     0   230   230     0PRN / # OF OBS
         230     0     0     0     0                        PRN / # OF OBS
   R06   239   239   239   239     0     0     0     0     0PRN / # OF OBS
           0     0     0     0     0                        PRN / # OF OBS
   R07    69    69    69    69    66     0    66    66     0PRN / # OF OBS
          66     0     0     0     0                        PRN / # OF OBS
   R13    64    64    64    64    48     0    48    48     0PRN / # OF OBS
          48     0     0     0     0                        PRN / # OF OBS
   R14   239   239   239   239   239     0   239   239     0PRN / # OF OBS
         239     0     0     0     0                        PRN / # OF OBS
   R15   239   239   239   239   239     0   239   239     0PRN / # OF OBS
         239     0     0     0     0                        PRN / # OF OBS
   R16   126   126   126   126   125     0   125   125     0PRN / # OF OBS
         125     0     0     0     0                        PRN / # OF OBS
   R17   239   239   239   239   239     0   239   239     0PRN / # OF OBS
         239     0     0     0     0                        PRN / # OF OBS
   R18    81    81    81    81    81     0    81    81     0PRN / # OF OBS
          81     0     0     0     0                        PRN / # OF OBS
   R23   239   239   239   239   231     0   231   231     0PRN / # OF OBS
         231     0     0     0     0                        PRN / # OF OBS
   R24   239   239   239   239   239     0   239   239     0PRN / # OF OBS
         239     0     0     0     0                        PRN / # OF OBS
   S23   239   239   239   239     0     0     0     0     0PRN / # OF OBS
           0     0     0     0     0                        PRN / # OF OBS
   S36   239   239   239   239     0     0     0     0     0PRN / # OF OBS
           0     0     0     0     0                        PRN / # OF OBS
   E07     2     2     2     2     0     0     0     0     0PRN / # OF OBS
           0     2     2     2     2                        PRN / # OF OBS
   E18   128   128   128   128     0     0     0     0     0PRN / # OF OBS
           0   128   128   128   128                        PRN / # OF OBS
   E19   239   239   239   239     0     0     0     0     0PRN / # OF OBS
           0   239   239   239   239                        PRN / # OF OBS
   E21   239   239   239   239     0     0     0     0     0PRN / # OF OBS
           0   239   239   239   239                        PRN / # OF OBS
   E27   239   239   239   239     0     0     0     0     0PRN / # OF OBS
           0   239   239   239   239                        PRN / # OF OBS
   E30   239   239   239   239     0     0     0     0     0PRN / # OF OBS
           0   238   238   238   238                        PRN / # OF OBS
                                                            END OF HEADER
 18 10 12  1  0 15.0000000  0 27G02G06G12G14G19G24G25G29G31G32S23S36
                                R04R05R06R13R14R15R17R23R24E07E18E19
                                E21E27E30
 125339261.645 6  23851268.160        1691.514          44.000    97666958.00443
  23851263.480        1318.052          28.000    23851267.320

 125727551.438 6  23925155.240         -52.452          43.000    97969532.50042
  23925155.740         -40.869          25.000    23925155.100

 108822918.039 8  20708308.540       -1883.590          52.000    84797085.80946
  20708305.600       -1467.736          41.000    20708308.220

 117719602.902 7  22401293.720        1540.278          47.000    91729553.31244
  22401290.940        1200.215          31.000    22401293.020

 129568803.457 6  24656120.500       -3638.074          42.000   100962702.05142
  24656116.120       -2834.860          24.000    24656119.200

 119797450.090 7  22796692.700       -3090.173          48.000    93348667.73844
  22796693.720       -2407.922          35.000    22796692.360

 107080327.594 8  20376704.780         665.686          52.000    83439221.21546
  20376704.840         518.717          44.000    20376703.780

 118410589.367 7  22532783.020        3470.537          48.000    92267986.80144
  22532781.060        2704.315          31.000    22532782.800

 125041815.641 6  23794667.220        3207.995          43.000    97435179.89842
  23794664.300        2499.743          24.000    23794667.080

 113814509.695 8  21658180.620        -297.921          51.000    88686623.71945
  21658180.740        -232.148          39.000    21658180.540

 205064248.617 6  39022427.820           3.175          45.000


 200999082.172 7  38248679.860            .463          46.000


 126304371.781 6  23586449.660       -4197.182          41.000    98236730.844 5
                     -3264.483          38.000                    23586444.920

 116695276.852 7  21830257.400       -2177.300          48.000    90762967.750 6
                     -1693.447          44.000                    21830251.880

 121805550.352 5  22826307.420        1681.982          39.000


 122431883.879 6  22927555.020       -3217.712          41.000    95224798.391 5
                     -2502.653          38.000                    22927550.900

 105119332.672 8  19720114.720       -1012.284          54.000    81759485.668 8
                      -787.321          51.000                    19720109.820

 106573699.461 7  19943808.300        1567.711          50.000    82890658.043 6
                      1219.329          42.000                    19943804.560

 118351185.160 7  22116749.720        4279.415          46.000    92050941.648 6
                      3328.416          42.000                    22116744.220

 114551840.508 7  21414251.020       -2416.210          50.000    89095870.781 6
                     -1879.275          42.000                    21414247.220

 107905473.566 7  20178865.300        1391.309          46.000    83926481.898 5
                      1082.114          38.000                    20178858.980

 148953923.973 5  28344990.660       -3075.672          37.000

 111231823.555 5  28344999.440       -2296.785          37.000
  98670965.867 6  18776459.860       -4792.066          44.000

  73682864.754 6  18776471.280       -3578.500          44.000
 136860914.594 5  26043764.880        -113.700          39.000

 102201330.617 5  26043771.180         -84.929          39.000
 136273825.707 6  25932046.200        2097.628          44.000

 101762924.168 6  25932053.440        1566.394          45.000
 121695161.496 7  23157817.560         147.272          49.000

  90876258.707 8  23157824.680         109.976          51.000
 124102054.504 7  23615836.140       -1907.646          48.000

  92673612.746 7  23615842.460       -1424.544          46.000
 18 10 12  1  0 30.0000000  0 27G02G06G12G14G19G24G25G29G31G32S23S36
                                R04R05R06R13R14R15R17R23R24E07E18E19
                                E21E27E30
 125313934.059 6  23846448.480        1685.503          45.000    97647222.27043
  23846443.800        1313.370          29.000    23846447.620

 125728411.012 6  23925318.820         -62.062          43.000    97970202.30542
  23925319.320         -48.365          25.000    23925318.660

 108851212.320 8  20713692.760       -1888.895          52.000    84819133.30146
  20713689.820       -1471.869          41.000    20713692.440

 117696563.785 7  22396909.540        1531.689          47.000    91711600.75044
  22396906.740        1193.528          31.000    22396908.820

 129623402.375 6  24666510.320       -3641.736          42.000   101005246.65242
  24666505.940       -2837.723          24.000    24666509.040

 119843831.941 7  22805518.880       -3093.944          48.000    93384809.40645
  22805519.900       -2410.870          36.000    22805518.540

 107070394.484 8  20374814.560         658.820          52.000    83431481.13346
  20374814.640         513.364          44.000    20374813.560

 118358566.500 7  22522883.380        3465.931          49.000    92227449.50844
  22522881.420        2700.723          31.000    22522883.160

 124993709.438 6  23785512.900        3206.236          44.000    97397694.56642
  23785510.000        2498.361          25.000    23785512.780

 113819055.391 8  21659045.640        -308.096          51.000    88690165.80945
  21659045.760        -240.074          39.000    21659045.560

 205064200.730 7  39022418.640           3.139          46.000


 200999078.594 7  38248679.660           -.263          46.000


 126367340.543 6  23598208.640       -4198.516          41.000    98285706.527 5
                     -3265.520          38.000                    23598203.900

 116728020.484 7  21836382.780       -2188.427          48.000    90788435.020 6
                     -1702.110          45.000                    21836377.260

 121780411.020 5  22821596.080        1669.960          40.000


 122480170.031 6  22936597.480       -3220.370          42.000    95262354.273 5
                     -2504.730          38.000                    22936593.360

 105134566.277 8  19722972.520       -1018.700          54.000    81771334.023 8
                      -792.326          51.000                    19722967.600

 106550224.867 7  19939415.340        1562.306          50.000    82872400.035 6
                      1215.107          42.000                    19939411.620

 118287030.172 7  22104760.820        4274.670          47.000    92001043.340 6
                      3324.752          43.000                    22104755.300

 114588170.957 7  21421042.620       -2427.728          49.000    89124127.789 6
                     -1888.257          41.000                    21421038.820

 107884706.777 7  20174981.800        1377.592          46.000    83910329.953 5
                      1071.443          38.000                    20174975.500

 149000049.348 5  28353767.980       -3074.290          36.000

 111266267.848 5  28353776.900       -2295.712          38.000
  98742970.918 6  18790161.960       -4808.494          43.000

  73736634.750 6  18790173.380       -3590.763          44.000
 136862676.094 5  26044100.080        -121.039          40.000

 102202646.023 5  26044106.360         -90.368          39.000
 136242371.820 6  25926060.700        2096.229          45.000

 101739435.879 6  25926067.940        1565.363          44.000
 121692977.125 7  23157401.900         144.061          49.000

  90874627.523 8  23157409.000         107.572          51.000
 124130684.473 7  23621284.280       -1909.595          48.000

  92694992.262 7  23621290.620       -1425.993          46.000
 18 10 12  1  0 45.0000000  0 26G02G06G12G14G19G24G25G29G31G32S23S36
                                R04R05R06R13R14R15R17R23R24E18E19E21
                                E27E30
 125288698.816 7  23841646.360        1679.377          46.000    97627558.43043
  23841641.700        1308.611          29.000    23841645.520

 125729414.867 6  23925509.840         -71.599          43.000    97970984.52042
  23925510.340         -55.791          24.000    23925509.680

 108879586.254 8  20719092.140       -1894.139          52.000    84841242.86346
  20719089.200       -1475.954          41.000    20719091.820

 117673654.070 7  22392549.960        1523.109          47.000    91693749.02744
  22392547.180        1186.836          31.000    22392549.240

 129678056.008 6  24676910.560       -3645.304          41.000   101047833.91042
  24676906.180       -2840.498          23.000    24676909.260

 119890270.258 7  22814355.800       -3097.673          47.000    93420995.10244
  22814356.840       -2413.768          35.000    22814355.460

 107060564.371 8  20372943.960         652.006          53.000    83423821.30546
  20372944.040         508.054          44.000    20372942.960

 118306613.027 7  22512996.960        3461.339          49.000    92186966.28144
  22512995.000        2697.146          31.000    22512996.740

 124945629.703 6  23776363.640        3204.526          45.000    97360229.83642
  23776360.720        2497.030          25.000    23776363.500

 113823754.656 8  21659939.900        -318.295          51.000    88693827.57045
  21659940.000        -248.026          39.000    21659939.800

 205064153.199 7  39022409.600           3.259          46.000


 200999083.883 7  38248681.140           -.485          46.000


 126430329.488 6  23609971.380       -4199.863          41.000    98334697.910 5
                     -3266.540          38.000                    23609966.660

 116760930.676 7  21842539.320       -2199.466          48.000    90814031.848 6
                     -1710.700          45.000                    21842533.800

 121755453.117 5  22816919.180        1657.985          40.000


 122528495.148 5  22945647.240       -3222.857          40.000    95299940.477 5
                     -2506.672          37.000                    22945643.120

 105149897.262 8  19725848.560       -1025.217          54.000    81783258.109 8
                      -797.401          51.000                    19725843.660

 106526831.520 7  19935037.600        1556.925          50.000    82854205.215 6
                      1210.920          42.000                    19935033.860

 118222946.656 7  22092785.280        4269.939          47.000    91951200.605 6
                      3321.048          43.000                    22092779.760

 114624674.586 7  21427866.580       -2439.265          49.000    89152519.488 6
                     -1897.211          41.000                    21427862.800

 107864146.168 7  20171136.860        1363.948          46.000    83894338.387 5
                      1060.868          38.000                    20171130.560

  98815222.094 6  18803910.860       -4824.786          42.000

  73790588.547 6  18803922.240       -3602.941          43.000
 136864548.410 5  26044456.360        -128.444          40.000

 102204044.188 5  26044462.660         -95.922          39.000
 136210939.047 6  25920079.280        2094.881          45.000

 101715963.359 6  25920086.440        1564.342          45.000
 121690841.293 7  23156995.460         140.880          49.000

  90873032.582 8  23157002.560         105.191          51.000
 124159343.699 7  23626737.940       -1911.487          48.000

  92716393.613 7  23626744.420       -1427.419          46.000
 18 10 12  1  1  0.0000000  0 26G02G06G12G14G19G24G25G29G31G32S23S36
                                R04R05R06R13R14R15R17R23R24E18E19E21
                                E27E30
 125263554.586 6  23836861.580        1673.144          45.000    97607965.54743
  23836856.920        1303.753          30.000    23836860.720

 125730561.441 6  23925728.020         -81.297          43.000    97971877.94942
  23925728.520         -63.339          24.000    23925727.880

 108908038.047 8  20724506.340       -1899.478          52.000    84863413.08646
  20724503.400       -1480.114          41.000    20724506.020

 117650872.410 7  22388214.760        1514.376          47.000    91675997.07844
  22388211.960        1180.026          31.000    22388214.040

 129732762.523 6  24687320.860       -3648.944          41.000   101090462.34842
  24687316.460       -2843.325          21.000    24687319.560

 119936763.629 7  22823203.200       -3101.497          48.000    93457223.68045
  22823204.240       -2416.757          36.000    22823202.860

 107050835.668 8  20371092.640         645.113          53.000    83416240.49646
  20371092.720         502.683          44.000    20371091.640

 118254727.742 7  22503123.520        3456.650          49.000    92146536.19544
  22503121.540        2693.491          31.000    22503123.300

 124897574.988 6  23767219.120        3202.682          45.000    97322784.59442
  23767216.200        2495.588          25.000    23767218.980

 113828605.883 7  21660863.060        -328.585          50.000    88697607.75045
  21660863.160        -256.046          39.000    21660862.960

 205064104.426 7  39022400.280           3.181          46.000


 200999091.164 7  38248682.720           -.693          46.000


 126493336.012 6  23621737.420       -4201.148          41.000    98383703.016 5
                     -3267.611          38.000                    23621732.700

 116794005.551 7  21848726.660       -2210.565          48.000    90839756.730 6
                     -1719.335          45.000                    21848721.160

 121730675.539 5  22812276.000        1645.774          39.000


 122576857.137 5  22954703.900       -3225.506          40.000    95337555.320 5
                     -2508.767          36.000                    22954699.800

 105165323.945 8  19728742.580       -1031.783          53.000    81795256.648 8
                      -802.512          51.000                    19728737.660

 106503518.605 7  19930674.900        1551.399          50.000    82836072.941 6
                      1206.646          42.000                    19930671.180

 118158933.488 7  22080822.860        4265.064          47.000    91901412.594 6
                      3317.276          42.000                    22080817.360

 114661349.211 7  21434722.500       -2450.784          48.000    89181044.191 6
                     -1906.187          42.000                    21434718.740

 107843790.277 6  20167330.180        1350.109          45.000    83878506.051 5
                      1050.068          38.000                    20167323.900

  98887716.785 6  18817706.060       -4841.186          42.000

  73844724.203 6  18817717.360       -3615.168          42.000
 136866529.965 5  26044833.460        -135.892          40.000

 102205523.910 5  26044839.720        -101.490          39.000
 136179525.844 6  25914101.540        2093.444          45.000

 101692505.457 6  25914108.740        1563.280          45.000
 121688752.430 7  23156597.980         137.603          49.000

  90871472.719 8  23156605.060         102.751          51.000
 124188030.598 7  23632196.820       -1913.505          47.000

  92737815.637 7  23632203.520       -1428.934          47.000
 18 10 12  1  1 15.0000000  0 26G02G06G12G14G19G24G25G29G31G32S23S36
                                R04R05R06R13R14R15R17R23R24E18E19E21
                                E27E30
 125238503.180 6  23832094.440        1666.915          45.000    97588444.97743
  23832089.820        1298.879          30.000    23832093.600

 125731852.410 6  23925973.680         -90.879          44.000    97972883.91442
  23925974.180         -70.800          24.000    23925973.520

 108936568.789 8  20729935.560       -1904.696          52.000    84885644.83246
  20729932.620       -1484.188          41.000    20729935.240

 117628220.629 7  22383904.260        1505.771          47.000    91658346.34444
  22383901.480        1173.317          31.000    22383903.540

 129787523.148 5  24697741.460       -3652.554          38.000   101133132.93741
  24697737.060       -2846.115          20.000    24697740.160

 119983313.125 7  22832061.280       -3105.159          48.000    93493496.00845
  22832062.320       -2419.612          36.000    22832060.940

 107041209.922 8  20369260.920         638.319          52.000    83408739.91446
  20369261.000         497.385          43.000    20369259.940

 118202912.512 7  22493263.400        3451.981          49.000    92106160.69144
  22493261.420        2689.854          31.000    22493263.180

 124849547.043 6  23758079.700        3200.958          45.000    97285360.22743
  23758076.780        2494.230          26.000    23758079.560

 113833610.621 8  21661815.420        -338.750          51.000    88701507.54345
  21661815.540        -263.964          39.000    21661815.340

 205064056.500 7  39022391.140           3.130          46.000


 200999101.059 7  38248684.400           -.575          46.000


 126556361.453 6  23633506.980       -4202.391          41.000    98432722.793 5
                     -3268.578          38.000                    23633502.260

 116827246.086 7  21854945.000       -2221.577          47.000    90865610.465 6
                     -1727.915          44.000                    21854939.500

 121706079.934 5  22807666.720        1633.617          39.000


 122625257.852 5  22963767.800       -3228.002          39.000    95375200.336 4
                     -2510.660          35.000                    22963763.700

 105180848.246 8  19731654.900       -1038.205          53.000    81807331.094 8
                      -807.506          51.000                    19731649.980

 106480287.457 7  19926327.520        1545.977          50.000    82818004.277 6
                      1202.388          42.000                    19926323.780

 118094992.930 7  22068874.040        4260.221          48.000    91851681.059 6
                      3313.482          43.000                    22068868.520

 114698196.180 7  21441610.660       -2462.226          48.000    89209702.926 6
                     -1915.099          41.000                    21441606.900

 107823641.070 7  20163562.160        1336.364          46.000    83862834.461 5
                      1039.355          38.000                    20163555.900

  98960455.555 6  18831547.760       -4857.354          43.000

  73899042.125 6  18831558.920       -3627.288          42.000
 136868622.301 5  26045231.680        -143.227          40.000

 102207086.352 5  26045237.860        -106.958          39.000
 136148133.840 6  25908127.860        2092.108          45.000

 101669063.379 6  25908135.040        1562.265          45.000
 121686712.141 7  23156209.740         134.410          49.000

  90869949.125 8  23156216.800         100.358          51.000
 124216746.742 7  23637661.220       -1915.404          47.000

  92759259.496 7  23637668.220       -1430.347          47.000
 18 10 12  1  1 30.0000000  0 26G02G06G12G14G19G24G25G29G31G32S23S36
                                R04R05R06R13R14R15R17R23R24E18E19E21
                                E27E30
 125213544.230 6  23827344.920        1660.596          45.000    97568996.46543
  23827340.300        1293.954          29.000    23827344.060

 125733287.254 6  23926246.720        -100.621          44.000    97974001.97742
  23926247.220         -78.419          24.000    23926246.560

 108965178.129 8  20735379.740       -1910.103          52.000    84907937.82446
  20735376.800       -1488.395          41.000    20735379.420

 117605698.488 7  22379618.440        1496.952          47.000    91640796.61344
  22379615.660        1166.459          31.000    22379617.720

 129842336.953 5  24708172.180       -3656.200          38.000   101175844.98041
  24708167.780       -2848.983          16.000    24708170.880

 120029918.102 7  22840929.920       -3109.055          49.000    93529811.56645
  22840930.960       -2422.650          36.000    22840929.580

 107031686.645 8  20367448.700         631.294          52.000    83401319.18446
  20367448.780         491.913          44.000    20367447.720

 118151167.086 7  22483416.560        3447.177          49.000    92065839.59044
  22483414.580        2686.105          31.000    22483416.340

 124801545.641 6  23748945.340        3199.012          45.000    97247956.54742
  23748942.400        2492.735          25.000    23748945.200

 113838768.305 8  21662796.900        -349.154          51.000    88705526.51245
  21662797.020        -272.077          38.000    21662796.820

 205064008.254 6  39022381.920           3.056          45.000


 200999105.828 7  38248684.900           -.466          46.000


 126619404.695 6  23645279.880       -4203.663          41.000    98481756.395 5
                     -3269.549          38.000                    23645275.160

 116860651.371 7  21861194.140       -2232.719          48.000    90891592.355 6
                     -1736.586          45.000                    21861188.640

 121681666.148 5  22803091.360        1621.322          39.000


 122673696.633 6  22972838.840       -3230.706          41.000    95412874.965 4
                     -2512.840          34.000                    22972834.740

 105196469.469 8  19734585.400       -1044.881          53.000    81819480.926 8
                      -812.716          51.000                    19734580.480

 106457137.785 7  19921995.380        1540.409          50.000    82799998.969 6
                      1198.052          42.000                    19921991.640

 118031124.973 7  22056938.780        4255.207          47.000    91802005.977 6
                      3309.551          43.000                    22056933.260

 114735214.375 7  21448530.800       -2473.800          48.000    89238494.844 5
                     -1924.107          40.000                    21448527.060

 107803698.059 7  20159832.720        1322.427          46.000    83847323.223 5
                      1028.496          38.000                    20159826.460

  99033436.832 6  18845435.620       -4873.641          43.000

  73953541.152 6  18845446.700       -3639.424          42.000
 136870824.902 5  26045650.900        -150.690          40.000

 102208731.148 5  26045656.980        -112.526          39.000
 136116762.586 6  25902158.100        2090.526          45.000

 101645636.797 6  25902165.320        1561.070          45.000
 121684719.965 7  23155830.660         130.988          49.000

  90868461.457 8  23155837.680          97.778          51.000
 124245491.617 7  23643131.080       -1917.509          47.000

  92780724.809 7  23643138.340       -1431.930          47.000
 18 10 12  1  1 45.0000000  0 26G02G06G12G14G19G24G25G29G31G32S23S36
                                R04R05R06R13R14R15R17R23R24E18E19E21
                                E27E30
 125188678.191 6  23822613.060        1654.697          45.000    97549620.33243
  23822608.460        1289.378          30.000    23822612.200

 125734866.059 6  23926547.160        -110.037          43.000    97975232.21942
  23926547.640         -85.732          25.000    23926547.000

 108993865.883 8  20740838.840       -1915.074          52.000    84930291.91046
  20740835.920       -1492.263          41.000    20740838.520

 117583306.105 7  22375357.300        1488.547          47.000    91623348.00444
  22375354.520        1159.910          31.000    22375356.580

 129897203.664 5  24718612.960       -3659.451          39.000   101218598.29741
  24718608.560       -2851.553          18.000    24718611.660

 120076578.629 7  22849809.140       -3112.528          48.000    93566170.40245
  22849810.180       -2425.337          36.000    22849808.780

 107022265.820 8  20365655.980         624.642          52.000    83393978.27746
  20365656.060         486.738          43.000    20365654.980

 118099491.812 7  22473583.080        3442.731          50.000    92025573.14844
  22473581.100        2682.647          32.000    22473582.860

 124753570.961 6  23739816.060        3197.462          45.000    97210573.66442
  23739813.120        2491.539          25.000    23739815.920

 113844078.941 8  21663807.480        -359.090          51.000    88709664.66445
  21663807.600        -279.808          38.000    21663807.400

 205063960.203 7  39022372.780           3.237          46.000


 200999105.633 7  38248684.420            .137          46.000


 126682465.312 6  23657056.000       -4204.437          41.000    98530803.539 5
                     -3270.097          38.000                    23657051.300

 116894221.168 7  21867474.080       -2243.374          48.000    90917702.184 6
                     -1744.821          45.000                    21867468.580

 121657434.535 5  22798550.440        1609.466          39.000


 122722173.305 5  22981916.980       -3232.974          39.000    95450579.023 5
                     -2514.546          36.000                    22981912.880

 105212187.664 8  19737534.080       -1051.033          53.000    81831706.180 8
                      -817.441          51.000                    19737529.180

 106434069.945 7  19917678.540        1535.219          50.000    82782057.316 6
                      1194.079          42.000                    19917674.820

 117967330.008 7  22045017.160        4250.584          48.000    91752387.684 6
                      3306.025          43.000                    22045011.640

 114772403.598 7  21455482.920       -2484.878          48.000    89267419.781 5
                     -1932.646          40.000                    21455479.200

 107783961.801 7  20156141.920        1308.914          46.000    83831972.820 5
                      1018.054          37.000                    20156135.680

  99106659.645 6  18859369.480       -4889.529          43.000

  74008220.520 6  18859380.560       -3651.247          43.000
 136873137.766 5  26046091.100        -157.798          40.000

 102210458.289 5  26046097.120        -117.807          40.000
 136085412.086 6  25896192.260        2089.396          45.000

 101622225.707 6  25896199.500        1560.293          45.000
 121682775.926 7  23155460.720         128.048          49.000

  90867009.738 8  23155467.740          95.648          51.000
 124274265.215 7  23648606.440       -1919.130          47.000

  92802211.559 7  23648613.940       -1433.073          47.000
 18 10 12  1  2  0.0000000  0 26G02G06G12G14G19G24G25G29G31G32S23S36
                                R04R05R06R13R14R15R17R23R24E18E19E21
                                E27E30
 125163905.250 6  23817898.920        1648.414          45.000    97530316.75443
  23817894.360        1284.490          30.000    23817898.060

 125736588.812 6  23926874.980        -119.682          43.000    97976574.62942
  23926875.460         -93.273          25.000    23926874.820

 109022631.547 8  20746312.760       -1920.294          52.000    84952706.71546
  20746309.840       -1496.330          41.000    20746312.440

 117561043.742 7  22371120.920        1479.821          47.000    91606000.70344
  22371118.140        1153.105          31.000    22371120.200

 129952122.844 6  24729063.720       -3663.011          41.000   101261392.47741
  24729059.340       -2854.292          18.000    24729062.440

 120123294.426 7  22858698.880       -3116.195          48.000    93602572.33644
  22858699.900       -2428.199          34.000    22858698.520

 107012947.426 8  20363882.760         617.818          52.000    83386717.19546
  20363882.820         481.422          43.000    20363881.760

 118047886.945 7  22463763.000        3437.987          50.000    91985361.56244
  22463761.000        2678.968          32.000    22463762.780

 124705623.152 6  23730691.880        3195.611          45.000    97173211.73443
  23730688.940        2490.067          26.000    23730691.740

 113849542.418 7  21664847.160        -369.324          50.000    88713921.91045
  21664847.280        -287.785          38.000    21664847.060

 205063911.535 7  39022363.540           3.169          46.000


 200999102.168 7  38248683.480            .242          46.000


 126745542.836 5  23668835.300       -4205.711          40.000    98579863.828 5
                     -3271.065          37.000                    23668830.580

 116927954.816 7  21873784.680       -2254.373          48.000    90943939.469 6
                     -1753.385          45.000                    21873779.160

 121633385.371 5  22794043.940        1597.168          39.000


 122770687.930 6  22991002.220       -3235.580          41.000    95488312.621 5
                     -2516.528          36.000                    22990998.120

 105228002.859 8  19740500.980       -1057.582          53.000    81844006.875 8
                      -822.538          51.000                    19740496.080

 106411084.676 7  19913377.160        1529.602          49.000    82764179.883 6
                      1189.699          42.000                    19913373.440

 117903608.750 7  22033109.320        4245.624          47.000    91702826.695 6
                      3302.187          43.000                    22033103.780

 114809763.195 7  21462466.920       -2496.361          48.000    89296477.258 5
                     -1941.585          39.000                    21462463.180

 107764432.340 7  20152489.800        1295.081          46.000    83816783.242 5
                      1007.326          37.000                    20152483.580

  99180122.906 6  18873349.080       -4905.521          43.000

  74063079.449 6  18873360.300       -3663.189          44.000
 136875560.836 5  26046552.240        -165.279          40.000

 102212267.723 5  26046558.200        -123.426          39.000
 136054082.383 6  25890230.420        2087.979          45.000

 101598830.156 6  25890237.620        1559.231          45.000
 121680880.004 7  23155099.920         124.795          49.000

  90865593.953 8  23155106.960          93.211          51.000
 124303067.484 7  23654087.340       -1921.074          47.000

  92823719.727 7  23654094.940       -1434.532          47.000
 18 10 12  1  2 15.0000000  0 26G02G06G12G14G19G24G25G29G31G32S23S36
                                R04R05R06R13R14R15R17R23R24E18E19E21
                                E27E30
 125139225.605 6  23813202.540        1642.245          45.000    97511085.87543
  23813197.980        1279.657          29.000    23813201.680

 125738455.445 6  23927230.180        -129.246          43.000    97978029.15642
  23927230.680        -100.704          25.000    23927230.040

 109051475.160 8  20751801.520       -1925.476          52.000    84975182.25446
  20751798.600       -1500.377          41.000    20751801.200

 117538911.457 7  22366909.280        1471.186          47.000    91588754.77344
  22366906.500        1146.382          31.000    22366908.560

 130007094.004 6  24739524.380       -3666.412          41.000   101304227.21542
  24739519.980       -2856.971          21.000    24739523.100

 120170065.516 7  22867599.120       -3119.850          48.000    93639017.34044
  22867600.160       -2431.059          33.000    22867598.760

 107003731.312 8  20362128.980         610.986          52.000    83379535.80946
  20362129.060         476.082          43.000    20362127.980

 117996352.687 7  22453956.360        3433.320          49.000    91945205.00844
  22453954.360        2675.300          31.000    22453956.140

 124657702.344 6  23721572.860        3193.880          45.000    97135870.85543
  23721569.920        2488.719          26.000    23721572.720

 113855158.559 7  21665915.860        -379.528          50.000    88718298.12545
  21665916.000        -295.747          38.000    21665915.780

 205063862.879 7  39022354.300           3.256          46.000


 200999100.539 7  38248683.120           -.134          46.000


 126808636.637 6  23680617.620       -4206.710          41.000    98628936.766 5
                     -3271.915          37.000                    23680612.920

 116961851.871 7  21880125.820       -2265.209          48.000    90970303.832 6
                     -1761.884          45.000                    21880120.320

 121609518.719 5  22789571.460        1585.003          39.000


 122819240.234 6  23000094.520       -3238.041          41.000    95526075.504 5
                     -2518.542          37.000                    23000090.440

 105243914.824 8  19743486.020       -1063.993          53.000    81856382.852 8
                      -827.595          51.000                    19743481.140

 106388181.230 7  19909091.100        1524.178          50.000    82746366.098 6
                      1185.435          42.000                    19909087.360

 117839961.617 7  22021215.340        4240.704          47.000    91653323.406 6
                      3298.288          42.000                    22021209.800

 114847292.805 7  21469482.680       -2507.587          49.000    89325666.988 5
                     -1950.377          38.000                    21469478.960

 107745109.887 7  20148876.400        1281.302          47.000    83801754.676 5
                       996.540          37.000                    20148870.160

  99253825.492 6  18887374.180       -4921.392          42.000

  74118117.082 6  18887385.580       -3675.114          44.000
 136878093.969 5  26047034.280        -172.481          40.000

 102214159.352 5  26047040.240        -128.832          39.000
 136022773.375 6  25884272.540        2086.591          45.000

 101575450.059 6  25884279.700        1558.129          45.000
 121679032.102 7  23154748.280         121.637          49.000

  90864214.031 8  23154755.320          90.779          51.000
 124331898.289 7  23659573.720       -1922.967          48.000

  92845249.207 7  23659581.320       -1436.030          47.000
 18 10 12  1  2 30.0000000  0 26G02G06G12G14G19G24G25G29G31G32S23S36
                                R04R05R06R13R14R15R17R23R24E18E19E21
                                E27E30
 125114639.398 6  23808523.940        1636.042          45.000    97491927.78943
  23808519.380        1274.848          28.000    23808523.080

 125740465.891 6  23927612.760        -138.701          43.000    97979595.73842
  23927613.240        -108.083          24.000    23927612.600

 109080396.277 8  20757305.040       -1930.596          52.000    84997718.18846
  20757302.120       -1504.356          41.000    20757304.700

 117516909.133 7  22362722.380        1462.537          47.000    91571610.10944
  22362719.600        1139.645          31.000    22362721.660

 130062116.539 6  24749994.820       -3669.840          41.000   101347101.95342
  24749990.420       -2859.620          22.000    24749993.540

 120216891.418 7  22876509.800       -3123.463          46.000    93675505.05944
  22876510.840       -2433.858          32.000    22876509.440

 106994617.363 8  20360394.660         604.238          52.000    83372434.02746
  20360394.740         470.837          43.000    20360393.660

 117944889.227 7  22444163.180        3428.615          49.000    91905103.60544
  22444161.180        2671.654          32.000    22444162.960

 124609808.590 6  23712458.960        3192.081          45.000    97098551.05543
  23712456.040        2487.341          26.000    23712458.840

 113860927.223 7  21667013.600        -389.550          50.000    88722793.18045
  21667013.740        -303.542          38.000    21667013.520

 205063814.133 6  39022345.100           3.308          45.000


 200999101.051 7  38248683.260           -.084          46.000


 126871745.773 6  23692402.820       -4207.618          41.000    98678021.656 5
                     -3272.539          37.000                    23692398.120

 116995911.629 7  21886497.420       -2275.980          48.000    90996794.750 6
                     -1770.192          45.000                    21886491.920

 121585834.902 5  22785132.800        1572.878          38.000


 122867829.988 6  23009193.840       -3240.419          41.000    95563867.527 5
                     -2520.294          38.000                    23009189.760

 105259923.633 8  19746489.240       -1070.377          54.000    81868834.148 7
                      -832.486          50.000                    19746484.380

 106365359.867 7  19904820.380        1518.779          50.000    82728616.145 6
                      1181.300          42.000                    19904816.660

 117776388.902 7  22009335.240        4235.778          47.000    91603877.949 6
                      3294.536          43.000                    22009329.700

 114884991.555 7  21476530.080       -2518.769          49.000    89354988.242 5
                     -1959.011          39.000                    21476526.340

 107725994.215 7  20145301.660        1267.599          47.000    83786886.922 5
                       985.949          37.000                    20145295.440

  99327766.262 6  18901444.560       -4937.237          42.000

  74173332.562 6  18901456.140       -3686.867          44.000
 136880737.035 5  26047537.260        -179.834          40.000

 102216133.059 5  26047543.200        -134.263          39.000
 135991484.992 6  25878318.540        2085.313          45.000

 101552085.363 6  25878325.700        1557.232          45.000
 121677232.145 7  23154405.720         118.440          49.000

  90862869.898 8  23154412.820          88.466          51.000
 124360757.504 7  23665065.560       -1924.850          48.000

  92866799.910 7  23665073.040       -1437.367          47.000
 18 10 12  1  2 45.0000000  0 26G02G06G12G14G19G24G25G29G31G32S23S36
                                R04R05R06R13R14R15R17R23R24E18E19E21
                                E27E30
 125090147.215 6  23803863.240        1629.791          44.000    97472842.98443
  23803858.660        1269.974          27.000    23803862.380

 125742620.500 6  23928022.760        -148.340          44.000    97981274.66042
  23928023.260        -115.569          25.000    23928022.620

 109109395.086 8  20762823.320       -1935.759          52.000    85020314.66046
  20762820.420       -1508.382          41.000    20762823.000

 117495037.523 7  22358560.340        1453.842          47.000    91554567.29344
  22358557.560        1132.865          31.000    22358559.640

 130117190.703 6  24760475.080       -3673.197          41.000   101390016.88742
  24760470.680       -2862.249          22.000    24760473.800

 120263771.906 7  22885430.860       -3127.110          46.000    93712035.29744
  22885431.900       -2436.704          31.000    22885430.500

 106985605.887 8  20358679.820         597.478          52.000    83365412.09846
  20358679.900         465.565          43.000    20358678.820

 117893497.293 7  22434383.620        3423.837          50.000    91865057.93844
  22434381.600        2667.916          32.000    22434383.400

 124561942.246 7  23703350.300        3190.259          46.000    97061252.59043
  23703347.360        2485.918          26.000    23703350.180

 113866848.684 7  21668140.420        -399.788          50.000    88727407.29345
  21668140.560        -311.528          38.000    21668140.340

 205063765.523 7  39022335.920           3.376          46.000


 200999101.430 7  38248683.360            .264          46.000


 126934870.324 6  23704190.880       -4208.750          41.000    98727118.523 5
                     -3273.441          38.000                    23704186.180

 117030134.082 7  21892899.440       -2286.803          48.000    91023412.203 6
                     -1778.635          45.000                    21892893.940

 121562334.246 5  22780728.360        1560.633          38.000


 122916457.480 6  23018300.220       -3242.997          41.000    95601688.875 5
                     -2522.329          38.000                    23018296.140

 105276029.617 8  19749510.680       -1076.911          53.000    81881361.012 7
                      -837.603          50.000                    19749505.820

 106342621.004 7  19900565.120        1513.263          50.000    82710930.359 6
                      1176.988          42.000                    19900561.400

 117712891.453 7  21997469.220        4230.735          48.000    91554491.055 6
                      3290.576          43.000                    21997463.680

 114922859.781 7  21483609.140       -2530.064          49.000    89384441.320 5
                     -1967.819          39.000                    21483605.400

 107707086.164 7  20141765.760        1253.717          46.000    83772180.668 5
                       975.116          37.000                    20141759.520

  99401944.488 6  18915560.100       -4952.949          42.000

  74228725.379 6  18915571.780       -3698.643          43.000
 136883490.352 5  26048061.220        -187.121          40.000

 102218189.109 5  26048067.160        -139.748          39.000
 135960217.609 6  25872368.580        2083.875          45.000

 101528736.352 6  25872375.740        1556.116          45.000
 121675480.465 7  23154072.380         115.271          49.000

  90861561.832 8  23154079.480          86.072          51.000
 124389645.434 7  23670562.860       -1926.734          48.000

  92888372.059 7  23670570.200       -1438.798          46.000
 18 10 12  1  3  0.0000000  0 26G02G06G12G14G19G24G25G29G31G32S23S36
                                R04R05R06R13R14R15R17R23R24E18E19E21
                                E27E30
 125065749.586 6  23799220.520        1623.312          42.000    97453831.83643
  23799215.940        1264.906          26.000    23799219.640

 125744919.496 6  23928460.240        -158.146          43.000    97983066.07442
  23928460.740        -123.240          25.000    23928460.100

 109138471.625 8  20768356.400       -1941.065          52.000    85042971.70345
  20768353.500       -1512.515          40.000    20768356.080

 117473297.059 7  22354423.280        1444.953          47.000    91537626.66044
  22354420.500        1125.932          31.000    22354422.560

 130172316.305 5  24770965.120       -3676.736          40.000   101432971.87542
  24770960.720       -2864.974          22.000    24770963.840

 120310707.656 7  22894362.420       -3130.969          46.000    93748608.60544
  22894363.480       -2439.710          32.000    22894362.080

 106976697.070 8  20356984.540         590.448          52.000    83358470.16446
  20356984.620         460.093          43.000    20356983.540

 117842177.348 7  22424617.760        3418.878          50.000    91825068.38344
  22424615.740        2664.063          33.000    22424617.520

 124514103.918 6  23694246.960        3188.217          45.000    97023975.96943
  23694244.040        2484.321          26.000    23694246.840

 113872923.082 7  21669296.360        -410.102          50.000    88732140.59045
  21669296.480        -319.562          39.000    21669296.260

 205063717.770 7  39022326.900           3.126          46.000


 200999100.188 7  38248683.260           -.065          46.000


 126998009.871 6  23715981.760       -4209.891          41.000    98776227.094 5
                     -3274.348          37.000                    23715977.060

 117064518.934 7  21899331.860       -2297.824          48.000    91050155.969 6
                     -1787.203          45.000                    21899326.360

 121539017.105 5  22776358.760        1548.283          39.000


 122965122.719 5  23027413.660       -3245.657          40.000    95639539.609 5
                     -2524.400          37.000                    23027409.580

 105292232.832 8  19752550.360       -1083.565          54.000    81893963.512 7
                      -842.766          50.000                    19752545.520

 106319964.668 7  19896325.300        1507.600          50.000    82693308.758 6
                      1172.578          42.000                    19896321.580

 117649470.094 7  21985617.420        4225.460          47.000    91505163.340 6
                      3286.471          42.000                    21985611.860

 114960896.949 7  21490719.800       -2541.510          49.000    89414025.785 5
                     -1976.756          40.000                    21490716.040

 107688385.949 7  20138268.740        1239.677          46.000    83757636.055 5
                       964.215          37.000                    20138262.480

  99476359.359 6  18929720.760       -4968.932          43.000

  74284294.926 6  18929732.380       -3710.544          42.000
 136886354.090 5  26048606.200        -194.657          40.000

 102220327.621 5  26048612.120        -145.350          39.000
 135928971.480 6  25866422.660        2082.285          45.000

 101505403.207 6  25866429.800        1554.968          45.000
 121673777.297 7  23153748.260         111.861          49.000

  90860289.980 8  23153755.380          83.552          51.000
 124418562.277 7  23676065.680       -1928.788          48.000

  92909965.797 7  23676072.800       -1440.315          46.000
 18 10 12  1  3 15.0000000  0 26G02G06G12G14G19G24G25G29G31G32S23S36
                                R04R05R06R13R14R15R17R23R24E18E19E21
                                E27E30
 125041445.719 6  23794595.620        1617.118          43.000    97434893.77042
  23794591.040        1260.117          25.000    23794594.760

 125747361.922 6  23928925.020        -167.671          43.000    97984969.28142
  23928925.520        -130.648          24.000    23928924.860

 109167624.633 8  20773904.020       -1946.112          52.000    85065688.32445
  20773901.120       -1516.446          40.000    20773903.700

 117451686.852 7  22350310.980        1436.319          47.000    91520787.53944
  22350308.200        1119.214          31.000    22350310.280

 130227491.898 5  24781464.680       -3679.959          37.000   101475965.80941
  24781460.280       -2867.493          18.000    24781463.400

 120357697.469 7  22903304.300       -3134.475          47.000    93785224.02344
  22903305.360       -2442.443          32.000    22903303.960

 106967889.937 8  20355308.600         583.722          52.000    83351607.46546
  20355308.660         454.852          43.000    20355307.600

 117790928.793 8  22414865.480        3414.173          51.000    91785134.44544
  22414863.460        2660.406          32.000    22414865.260

 124466292.762 6  23685148.800        3186.470          45.000    96986720.54343
  23685145.880        2482.966          26.000    23685148.680

 113879149.355 7  21670481.180        -420.153          50.000    88736992.22745
  21670481.320        -327.388          39.000    21670481.080

 205063669.504 7  39022317.820           3.194          46.000


 200999099.395 7  38248683.340           -.035          46.000


 127061162.941 6  23727775.160       -4210.649          41.000    98825346.090 5
                     -3274.929          38.000                    23727770.460

 117099064.891 7  21905794.400       -2308.428          48.000    91077025.035 6
                     -1795.425          45.000                    21905788.900

 121515882.926 5  22772023.240        1536.105          38.000


 123013825.004 5  23036534.040       -3248.123          38.000    95677419.129 5
                     -2526.291          37.000                    23036529.980

 105308532.539 8  19755608.140       -1089.875          54.000    81906641.047 7
                      -847.666          50.000                    19755603.300

 106297390.602 7  19892100.860        1502.194          50.000    82675751.152 6
                      1168.400          42.000                    19892097.140

 117586124.410 7  21973779.760        4220.508          47.000    91455894.465 6
                      3282.632          42.000                    21973774.200

 114999101.855 7  21497861.800       -2552.600          48.000    89443740.719 5
                     -1985.331          40.000                    21497858.040

 107669893.199 7  20134810.500        1225.914          46.000    83743252.809 5
                       953.461          37.000                    20134804.240

  99551008.859 6  18943926.080       -4984.484          43.000

  74340039.688 6  18943937.560       -3722.129          42.000
 136889327.230 5  26049172.000        -201.863          40.000

 102222547.824 5  26049177.840        -150.723          39.000
 135897745.645 6  25860480.580        2081.032          45.000

 101482085.219 6  25860487.760        1554.037          45.000
 121672121.680 7  23153433.200         108.773          49.000

  90859053.645 8  23153440.320          81.260          51.000
 124447507.062 7  23681573.800       -1930.597          48.000

  92931580.406 7  23681580.720       -1441.645          46.000
 18 10 12  1  3 30.0000000  0 26G02G06G12G14G19G24G25G29G31G32S23S36
                                R04R05R06R13R14R15R17R23R24E18E19E21
                                E27E30
 125017236.902 6  23789988.840        1610.881          42.000    97416029.75442
  23789984.240        1255.253          25.000    23789987.980

 125749948.852 6  23929417.300        -177.181          43.000    97986985.07442
  23929417.780        -138.047          25.000    23929417.140

 109196855.035 8  20779466.380       -1951.190          52.000    85088465.27345
  20779463.500       -1520.410          40.000    20779466.060

 117430208.145 7  22346223.720        1427.626          47.000    91504050.88344
  22346220.940        1112.430          31.000    22346223.020

 130282718.137 5  24791973.880       -3683.337          38.000   101518999.21542
  24791969.480       -2870.123          21.000    24791972.600

 120404741.887 7  22912256.560       -3138.039          48.000    93821882.01244
  22912257.620       -2445.225          34.000    22912256.220

 106959185.461 8  20353652.180         576.964          52.000    83344824.75846
  20353652.260         449.581          43.000    20353651.180

 117739752.910 7  22405127.040        3409.370          50.000    91745257.13744
  22405125.020        2656.655          33.000    22405126.800

 124418510.059 7  23676056.060        3184.664          46.000    96949487.25443
  23676053.120        2481.556          26.000    23676055.920

 113885528.574 7  21671695.100        -430.265          50.000    88741963.03945
  21671695.240        -335.271          39.000    21671695.020

 205063621.680 7  39022308.780           3.288          46.000


 200999101.160 7  38248683.920           -.065          46.000


 127124329.863 5  23739571.140       -4211.503          40.000    98874475.926 5
                     -3275.588          37.000                    23739566.440

 117133772.395 7  21912287.160       -2319.091          48.000    91104019.758 6
                     -1803.719          44.000                    21912281.680

 121492933.105 5  22767722.360        1523.929          39.000


 123062565.168 5  23045661.500       -3250.439          38.000    95715328.133 4
                     -2528.083          35.000                    23045657.460

 105324929.695 8  19758684.220       -1096.273          54.000    81919394.402 7
                      -852.641          50.000                    19758679.380

 106274899.711 7  19887892.000        1496.781          50.000    82658258.238 6
                      1164.183          42.000                    19887888.280

 117522855.945 7  21961956.540        4215.430          47.000    91406685.652 6
                      3278.683          42.000                    21961950.960

 115037475.016 7  21505035.240       -2563.744          48.000    89473586.484 6
                     -1994.002          41.000                    21505031.500

 107651608.758 7  20131391.220        1212.131          46.000    83729031.574 5
                       942.779          36.000                    20131384.940

  99625892.949 6  18958176.060       -4999.981          42.000

  74395959.656 6  18958187.400       -3733.755          42.000
 136892410.820 5  26049758.820        -209.167          40.000

 102224850.496 5  26049764.620        -156.192          39.000
 135866541.168 6  25854542.540        2079.654          45.000

 101458783.172 6  25854549.720        1552.983          45.000
 121670514.668 7  23153127.380         105.584          49.000

  90857853.602 8  23153134.520          78.855          51.000
 124476480.785 7  23687087.340       -1932.475          48.000

  92953216.629 7  23687094.140       -1443.079          46.000
 18 10 12  1  3 45.0000000  0 26G02G06G12G14G19G24G25G29G31G32S23S36
                                R04R05R06R13R14R15R17R23R24E18E19E21
                                E27E30
 124993122.844 6  23785400.060        1604.524          43.000    97397239.57842
  23785395.480        1250.267          25.000    23785399.200

 125752679.707 6  23929936.960        -186.761          43.000    97989113.01242
  23929937.440        -145.520          24.000    23929936.800

 109226162.062 8  20785043.320       -1956.265          52.000    85111301.91445
  20785040.440       -1524.359          40.000    20785043.000

 117408860.871 7  22342161.480        1418.840          47.000    91487416.63744
  22342158.700        1105.587          31.000    22342160.760

 130337994.297 5  24802492.580       -3686.637          39.000   101562071.51241
  24802488.180       -2872.713          18.000    24802491.300

 120451840.469 7  22921219.140       -3141.567          47.000    93858582.18044
  22921220.200       -2447.972          32.000    22921218.780

 106950583.047 8  20352015.200         570.144          52.000    83338121.58246
  20352015.280         444.268          43.000    20352014.200

